[
	{
		"id": "301",
		"name": "Alexis Clarke",
		"company_name": "Force Medicines",
		"date": "07 Apr, 2021",
		"leads_score": "147",
		"phone": "580-464-4694",
		"location": "Los Angeles, USA"
	},
	{
		"id": "302",
		"name": "James Morris",
		"company_name": "iTest Factory",
		"date": "15 Feb, 2021",
		"leads_score": "230",
		"phone": "863-577-5537",
		"location": "Phoenix, USA"
	},
	{
		"id": "303",
		"name": "Nancy Martino",
		"company_name": "Syntyce Solutions",
		"date": "02 Jan, 2022",
		"leads_score": "159",
		"phone": "786-253-9927",
		"location": "London, UK"
	},
	{
		"id": "304",
		"name": "Michael Morris",
		"company_name": "Micro Design",
		"date": "19 May, 2021",
		"leads_score": "352",
		"phone": "856-253-9927",
		"location": "Damascus, Syria"
	},
	{
		"id": "305",
		"name": "Kevin Dawson",
		"company_name": "Nesta Technologies",
		"date": "14 Apr, 2021",
		"leads_score": "78",
		"phone": "213-741-4294",
		"location": "Bogota, Colombia"
	},
	{
		"id": "306",
		"name": "Herbert Stokes",
		"company_name": "Zoetic Fashion",
		"date": "07 Jun, 2020",
		"leads_score": "85",
		"phone": "414-453-5725",
		"location": "Windhoek, Namibia"
	},
	{
		"id": "307",
		"name": "Glen Matney",
		"company_name": "Moetic Fashion",
		"date": "19 May, 2021",
		"leads_score": "365",
		"phone": "515-395-1069",
		"location": "Berlin, Germany"
	},
	{
		"id": "308",
		"name": "Charles Kubik",
		"company_name": "Syntyce Solutions",
		"date": "25 Sep, 2021",
		"leads_score": "236",
		"phone": "231-480-8536",
		"location": "Brasilia, Brazil"
	},
	{
		"id": "309",
		"name": "Thomas Taylor",
		"company_name": "Digitech Galaxy",
		"date": "28 Feb, 2019",
		"leads_score": "754",
		"phone": "536-480-8536",
		"location": "Windhoek, Namibia"
	},
	{
		"id": "310",
		"name": "Tonya Noble",
		"company_name": "Micro Design",
		"date": "23 Nov, 2021",
		"leads_score": "193",
		"phone": "745-321-9874",
		"location": "London, UK"
	},
	{
		"id": "311",
		"name": "John Doe",
		"company_name": "Themesbrand",
		"date": "01 Jan, 2022",
		"leads_score": "999",
		"phone": "000-222-6666",
		"location": "Gujarat, IND"
	}

]